{
  "1": {
    "FID": "1",
    "name_eng": "Adiyaman",
    "lat": "37.546134",
    "long": "38.229222",
    "area": "473649.8188",
    "population": "9625",
    "den2": "49.21037078",
    "fz_den": "1",
    "nncon": "149136.457",
    "fz_nncon": "0.25",
    "gradient": "",
    "fz_grad": "",
    "Score": "0.625",
    "source_year": "2014"
  },
  "2": {
    "FID": "2",
    "name_eng": "Akcakale",
    "lat": "36.752222",
    "long": "38.951944",
    "area": "688781.5688",
    "population": "31598",
    "den2": "21.79826473",
    "fz_den": "0.2",
    "nncon": "87816.45846",
    "fz_nncon": "0",
    "gradient": "",
    "fz_grad": "",
    "Score": "0.1",
    "source_year": "2014"
  },
  "3": {
    "FID": "3",
    "name_eng": "Al Obaidy",
    "lat": "34.417",
    "long": "41.221",
    "area": "165542.3467",
    "population": "1500",
    "den2": "110.3615645",
    "fz_den": "1",
    "nncon": "29086.22239",
    "fz_nncon": "0",
    "gradient": "",
    "fz_grad": "",
    "Score": "0.5",
    "source_year": "2014"
  },
  "4": {
    "FID": "4",
    "name_eng": "Altinozu 1",
    "lat": "36.130178",
    "long": "36.238765",
    "area": "8516.982352",
    "population": "8062",
    "den2": "1.05643542",
    "fz_den": "0",
    "nncon": "53143.83589",
    "fz_nncon": "0",
    "gradient": "",
    "fz_grad": "",
    "Score": "0",
    "source_year": "2014"
  },
  "5": {
    "FID": "6",
    "name_eng": "Adana",
    "lat": "36.235134",
    "long": "36.352043",
    "area": "111623.1614",
    "population": "5229",
    "den2": "21.34694232",
    "fz_den": "0.2",
    "nncon": "54664.23343",
    "fz_nncon": "0",
    "gradient": "",
    "fz_grad": "",
    "Score": "0.1",
    "source_year": "2014"
  },
  "6": {
    "FID": "7",
    "name_eng": "Aqra",
    "lat": "36.735413",
    "long": "43.879601",
    "area": "25537.14751",
    "population": "1178",
    "den2": "21.67839347",
    "fz_den": "0.2",
    "nncon": "359852.8744",
    "fz_nncon": "0.75",
    "gradient": "",
    "fz_grad": "",
    "Score": "0.475",
    "source_year": "2014"
  },
  "7": {
    "FID": "8",
    "name_eng": "Arbat Camp",
    "lat": "35.375216",
    "long": "45.610139",
    "area": "259796.5172",
    "population": "8111",
    "den2": "32.03014637",
    "fz_den": "0.5",
    "nncon": "440408.239",
    "fz_nncon": "1",
    "gradient": "",
    "fz_grad": "",
    "Score": "0.75",
    "source_year": "2014"
  },
  "8": {
    "FID": "10",
    "name_eng": "Azraq",
    "lat": "31.911235",
    "long": "36.576171",
    "area": "274907.9532",
    "population": "54000",
    "den2": "5.090888022",
    "fz_den": "0",
    "nncon": "178832.9247",
    "fz_nncon": "0.25",
    "gradient": "",
    "fz_grad": "",
    "Score": "0.125",
    "source_year": "2014"
  },
  "9": {
    "FID": "12",
    "name_eng": "Basirma",
    "lat": "36.496357",
    "long": "44.341423",
    "area": "110730.7196",
    "population": "3487",
    "den2": "31.75529669",
    "fz_den": "0.5",
    "nncon": "384599.3457",
    "fz_nncon": "0.75",
    "gradient": "",
    "fz_grad": "",
    "Score": "0.625",
    "source_year": "2014"
  },
  "10": {
    "FID": "14",
    "name_eng": "Cyber City",
    "lat": "32.455",
    "long": "35.969",
    "area": "146492.8461",
    "population": "12387",
    "den2": "11.82633778",
    "fz_den": "0.2",
    "nncon": "120641.8452",
    "fz_nncon": "0.25",
    "gradient": "",
    "fz_grad": "",
    "Score": "0.225",
    "source_year": "2014"
  },
  "11": {
    "FID": "17",
    "name_eng": "Gawilan",
    "lat": "36.338501",
    "long": "43.615807",
    "area": "390663.6165",
    "population": "8124",
    "den2": "48.08759435",
    "fz_den": "1",
    "nncon": "320034.4332",
    "fz_nncon": "0.75",
    "gradient": "",
    "fz_grad": "",
    "Score": "0.875",
    "source_year": "2014"
  },
  "12": {
    "FID": "18",
    "name_eng": "Harran Kokenli",
    "lat": "36.872778",
    "long": "38.931944",
    "area": "317328.2155",
    "population": "13761",
    "den2": "23.0599677",
    "fz_den": "0.2",
    "nncon": "101212.9784",
    "fz_nncon": "0.25",
    "gradient": "",
    "fz_grad": "",
    "Score": "0.225",
    "source_year": "2014"
  },
  "13": {
    "FID": "19",
    "name_eng": "Islahiye",
    "lat": "36.984384",
    "long": "36.61815",
    "area": "159103.9831",
    "population": "10061",
    "den2": "15.81393331",
    "fz_den": "0.2",
    "nncon": "58085.72716",
    "fz_nncon": "0",
    "gradient": "",
    "fz_grad": "",
    "Score": "0.1",
    "source_year": "2014"
  },
  "14": {
    "FID": "21",
    "name_eng": "Karkamis",
    "lat": "36.875833",
    "long": "38.028333",
    "area": "142555.8786",
    "population": "6605",
    "den2": "21.58302477",
    "fz_den": "0.2",
    "nncon": "92967.96983",
    "fz_nncon": "0",
    "gradient": "",
    "fz_grad": "",
    "Score": "0.1",
    "source_year": "2014"
  },
  "15": {
    "FID": "22",
    "name_eng": "Kawergosk",
    "lat": "36.346083",
    "long": "43.811241",
    "area": "442142.807",
    "population": "9090",
    "den2": "48.64057283",
    "fz_den": "1",
    "nncon": "335936.504",
    "fz_nncon": "0.75",
    "gradient": "",
    "fz_grad": "",
    "Score": "0.875",
    "source_year": "2014"
  },
  "16": {
    "FID": "23",
    "name_eng": "Kilis-Elbeyli",
    "lat": "36.661691",
    "long": "37.361668",
    "area": "370730.3363",
    "population": "20341",
    "den2": "18.22576748",
    "fz_den": "0.2",
    "nncon": "28866.96515",
    "fz_nncon": "0",
    "gradient": "",
    "fz_grad": "",
    "Score": "0.1",
    "source_year": "2014"
  },
  "17": {
    "FID": "26",
    "name_eng": "Malatya-Beydagi",
    "lat": "38.34",
    "long": "38.153",
    "area": "242418.7234",
    "population": "10227",
    "den2": "23.70379617",
    "fz_den": "0.2",
    "nncon": "217509.4796",
    "fz_nncon": "0.5",
    "gradient": "",
    "fz_grad": "",
    "Score": "0.35",
    "source_year": "2014"
  },
  "18": {
    "FID": "27",
    "name_eng": "Midyat 1",
    "lat": "37.411528",
    "long": "41.388257",
    "area": "73732.39964",
    "population": "3373",
    "den2": "21.85959076",
    "fz_den": "0.2",
    "nncon": "254521.2031",
    "fz_nncon": "0.5",
    "gradient": "",
    "fz_grad": "",
    "Score": "0.35",
    "source_year": "2014"
  },
  "19": {
    "FID": "29",
    "name_eng": "Mrajeeb al-Fhood",
    "lat": "32.032",
    "long": "36.448",
    "area": "416219.8313",
    "population": "7500",
    "den2": "55.49597751",
    "fz_den": "1",
    "nncon": "163977.9663",
    "fz_nncon": "0.25",
    "gradient": "",
    "fz_grad": "",
    "Score": "0.625",
    "source_year": "2014"
  },
  "20": {
    "FID": "30",
    "name_eng": "Nizip 1",
    "lat": "37.043057",
    "long": "37.903607",
    "area": "114169.4334",
    "population": "10033",
    "den2": "11.37939135",
    "fz_den": "0.2",
    "nncon": "91346.49563",
    "fz_nncon": "0",
    "gradient": "",
    "fz_grad": "",
    "Score": "0.1",
    "source_year": "2014"
  },
  "21": {
    "FID": "31",
    "name_eng": "Nizip 2",
    "lat": "37.046562",
    "long": "37.894919",
    "area": "290915.5835",
    "population": "4472",
    "den2": "65.05267967",
    "fz_den": "1",
    "nncon": "90722.60629",
    "fz_nncon": "0",
    "gradient": "",
    "fz_grad": "",
    "Score": "0.5",
    "source_year": "2014"
  },
  "22": {
    "FID": "35",
    "name_eng": "Qushtapa",
    "lat": "35.983523",
    "long": "44.040465",
    "area": "903546.3955",
    "population": "7716",
    "den2": "117.1003623",
    "fz_den": "1",
    "nncon": "330313.9896",
    "fz_nncon": "0.75",
    "gradient": "",
    "fz_grad": "",
    "Score": "0.875",
    "source_year": "2014"
  },
  "23": {
    "FID": "37",
    "name_eng": "Viransehir",
    "lat": "36.934884",
    "long": "40.02404",
    "area": "3215.058307",
    "population": "15157",
    "den2": "0.212117062",
    "fz_den": "0",
    "nncon": "142334.2201",
    "fz_nncon": "0.25",
    "gradient": "",
    "fz_grad": "",
    "Score": "0.125",
    "source_year": "2014"
  },
  "24": {
    "FID": "38",
    "name_eng": "Yayladagi 1",
    "lat": "35.906089",
    "long": "36.050238",
    "area": "44127.02887",
    "population": "3746",
    "den2": "11.77977279",
    "fz_den": "0.2",
    "nncon": "58804.29264",
    "fz_nncon": "0",
    "gradient": "",
    "fz_grad": "",
    "Score": "0.1",
    "source_year": "2014"
  },
  "25": {
    "FID": "40",
    "name_eng": "Za'atri",
    "lat": "32.292171",
    "long": "36.328187",
    "area": "3716269.776",
    "population": "80000",
    "den2": "46.4533722",
    "fz_den": "1",
    "nncon": "134205.6332",
    "fz_nncon": "0.25",
    "gradient": "",
    "fz_grad": "",
    "Score": "0.625",
    "source_year": "2014"
  },
  "26": {
    "FID": "42",
    "name_eng": "Domiz 1",
    "lat": "36.78232231",
    "long": "42.89142378",
    "area": "1,142,500",
    "population": "32,121",
    "den2": "35.56863111",
    "fz_den": "0.5",
    "nncon": "298374",
    "fz_nncon": "0.5",
    "gradient": "",
    "fz_grad": "",
    "Score": "0.5",
    "source_year": "2016"
  },
  "27": {
    "FID": "43",
    "name_eng": "Gawilan Camp",
    "lat": "36.33849565",
    "long": "43.61581064",
    "area": "1,262,500",
    "population": "8311",
    "den2": "151.9071111",
    "fz_den": "1",
    "nncon": "329242",
    "fz_nncon": "0.75",
    "gradient": "",
    "fz_grad": "",
    "Score": "0.875",
    "source_year": "2016"
  },
  "28": {
    "FID": "44",
    "name_eng": "Akre Settlement",
    "lat": "36.73543659",
    "long": "43.87958938",
    "area": "49,938",
    "population": "1163",
    "den2": "42.93895099",
    "fz_den": "0.7",
    "nncon": "373934",
    "fz_nncon": "0.75",
    "gradient": "",
    "fz_grad": "",
    "Score": "0.725",
    "source_year": "2016"
  },
  "29": {
    "FID": "45",
    "name_eng": "Domiz 2",
    "lat": "36.76435",
    "long": "42.89603",
    "area": "300,000",
    "population": "8976",
    "den2": "33.42245989",
    "fz_den": "0.5",
    "nncon": "297878",
    "fz_nncon": "0.5",
    "gradient": "",
    "fz_grad": "",
    "Score": "0.5",
    "source_year": "2016"
  },
  "30": {
    "FID": "46",
    "name_eng": "Arbat",
    "lat": "35.37659238",
    "long": "45.60941029",
    "area": "300,000",
    "population": "8,434",
    "den2": "35.57031065",
    "fz_den": "0.7",
    "nncon": "478873",
    "fz_nncon": "1",
    "gradient": "",
    "fz_grad": "",
    "Score": "0.85",
    "source_year": "2016"
  },
  "31": {
    "FID": "47",
    "name_eng": "Kawergosk",
    "lat": "36.3460809",
    "long": "43.8112815",
    "area": "419",
    "population": "9118.666667",
    "den2": "0.0459497",
    "fz_den": "0",
    "nncon": "345908",
    "fz_nncon": "0.75",
    "gradient": "",
    "fz_grad": "",
    "Score": "0.375",
    "source_year": "2016"
  },
  "32": {
    "FID": "48",
    "name_eng": "Basirma",
    "lat": "36.495447",
    "long": "44.340316",
    "area": "150,000",
    "population": "3466.166667",
    "den2": "43.27547242",
    "fz_den": "0.7",
    "nncon": "398760",
    "fz_nncon": "0.75",
    "gradient": "",
    "fz_grad": "",
    "Score": "0.725",
    "source_year": "2016"
  },
  "33": {
    "FID": "49",
    "name_eng": " Qushtapa",
    "lat": "35.983832",
    "long": "44.036722",
    "area": "426,000",
    "population": "7728.166667",
    "den2": "55.12303478",
    "fz_den": "1",
    "nncon": "347759",
    "fz_nncon": "0.75",
    "gradient": "",
    "fz_grad": "",
    "Score": "0.875",
    "source_year": "2016"
  },
  "34": {
    "FID": "50",
    "name_eng": "Darashakran",
    "lat": "36.465401",
    "long": "43.888397",
    "area": "1,150,000",
    "population": "12410.5",
    "den2": "92.66347045",
    "fz_den": "1",
    "nncon": "358915",
    "fz_nncon": "0.75",
    "gradient": "",
    "fz_grad": "",
    "Score": "0.875",
    "source_year": "2016"
  },
  "35": {
    "FID": "51",
    "name_eng": "Azraq ",
    "lat": "31.906692",
    "long": "36.580364",
    "area": "14700",
    "population": "53,757",
    "den2": "0.27345276",
    "fz_den": "0",
    "nncon": "162389",
    "fz_nncon": "0",
    "gradient": "",
    "fz_grad": "",
    "Score": "0",
    "source_year": "2016"
  },
}